City,Latitude,Longitude,Population_2020
Delhi,28.7041,77.1025,26073
Mumbai,19.076,72.8777,10563
Chennai,13.0827,80.2707,8890
Bengaluru,12.9716,77.5946,7790
Hyderabad,17.385,78.4867,14612
Kolkata,22.5726,88.3639,20168
Jaipur,26.9124,75.7873,8831
Ahmedabad,23.0225,72.5714,8318
Pune,18.5204,73.8567,11621
Kochi,9.9312,76.2673,4523
Lucknow,26.8467,80.9462,18074
Gandhinagar,23.2237,72.65,3542
Bhopal,23.2599,77.4126,12788
Raipur,21.2514,81.6296,11814
Guwahati,26.1445,91.7362,7833
